,city,city_id,latitude,longitude,temperature,cloudiness,humidity,wind_speed
0,Hermanus,3366880,-34.4187,19.2345,57.0,76,84,2.51
1,Jinchang,1805733,38.4953,102.1739,42.28,100,82,11.54
2,Rikitea,4030556,-23.1203,-134.9692,79.12,96,70,19.22
3,Atuona,4020109,-9.8,-139.0333,80.28,25,79,21.74
4,Novikovo,487928,51.1537,37.8879,52.45,96,74,7.63
5,Busselton,2075265,-33.65,115.3333,59.07,59,79,6.67
6,Albany,5106841,42.6001,-73.9662,54.46,17,27,5.01
7,Lensk,2020838,60.7253,114.9278,31.33,100,95,11.5
8,Port-Gentil,2396518,-0.7193,8.7815,80.64,82,75,6.69
9,Acajutla,3587498,13.5928,-89.8275,84.27,0,48,9.53
10,Tromsø,6453316,69.6496,18.957,35.47,40,80,4.61
11,Merauke,2082539,-8.4667,140.3333,78.21,89,87,5.17
12,Barrow,5880054,71.2906,-156.7887,12.2,1,85,3.44
13,Englewood,5421250,39.6478,-104.9878,51.96,75,32,6.91
14,Kuril'sk,2123979,45.2333,147.8833,34.02,64,90,6.06
15,Esim,2303611,4.8699,-2.2405,84.24,99,73,9.93
16,Katsuura,2112309,35.1333,140.3,53.78,0,67,13.8
17,Lavrentiya,4031637,65.5833,-171.0,23.32,94,72,2.66
18,Vila Franca do Campo,3372472,37.7167,-25.4333,60.8,40,67,28.77
19,Yellowknife,6185377,62.456,-114.3525,14.38,90,62,11.5
20,Kargasok,1504382,59.0556,80.8572,28.67,11,89,5.7
21,Dhidhdhoo,1337612,6.8833,73.1,83.82,16,72,6.53
22,Chui,3443061,-33.6971,-53.4616,73.99,34,62,12.15
23,Mil'kovo,2123278,54.7167,158.6167,31.23,91,91,1.74
24,New Norfolk,2155415,-42.7826,147.0587,48.96,95,79,1.01
25,Lagoa,3372964,39.05,-27.9833,57.67,7,77,33.73
26,Upernavik,3418910,72.7868,-56.1549,32.95,100,69,5.66
27,Cape Town,3369157,-33.9258,18.4232,60.8,0,82,5.75
28,Makurdi,2331140,7.7411,8.5121,95.76,24,39,13.58
29,Punta Arenas,3874787,-53.15,-70.9167,48.09,75,93,4.61
30,Thompson,6165406,55.7435,-97.8558,24.8,40,42,9.22
31,Ostrovnoy,556268,68.0531,39.5131,33.78,100,87,11.23
32,Victor Harbor,2059470,-35.5667,138.6167,53.01,100,90,6.78
33,Longyearbyen,2729907,78.2186,15.6401,15.8,0,67,4.61
34,Itapirapuã,3460697,-15.8233,-50.6133,88.0,4,32,1.45
35,Pecos,5528182,31.4229,-103.4932,76.87,1,11,19.57
36,Kapaa,5848280,22.0752,-159.319,71.53,40,78,12.66
37,Cabedelo,3404558,-6.9811,-34.8339,86.0,75,70,12.66
38,Mahébourg,934322,-20.4081,57.7,78.8,40,83,9.22
39,Den Helder,2757220,52.9599,4.7593,50.0,27,62,5.75
40,Husavik,2629833,66.0449,-17.3389,51.8,0,58,10.36
41,Puerto Ayora,3652764,-0.7393,-90.3518,81.59,40,70,11.5
42,Winslow,5321473,35.0242,-110.6974,66.2,1,19,19.57
43,Togur,1489499,58.3631,82.8265,26.37,7,92,3.74
44,Leh,1264976,34.1667,77.5833,31.44,100,73,6.67
45,Cabo San Lucas,3985710,22.8909,-109.9124,76.48,40,38,6.91
46,Dingle,1714733,10.9995,122.6711,77.27,100,81,6.15
47,Nioro,2412408,13.35,-15.75,104.13,37,9,4.45
48,Nikel,522260,69.4128,30.222,35.6,75,60,9.22
49,Saskylakh,2017155,71.9167,114.0833,31.42,100,98,11.65
50,Ushuaia,3833367,-54.8,-68.3,42.8,75,87,2.84
51,Luanda,2240449,-8.8368,13.2343,78.8,75,89,6.91
52,Rocha,3440777,-34.4833,-54.3333,75.0,6,57,11.81
53,Chokurdakh,2126123,70.6333,147.9167,-13.76,48,99,2.75
54,Bredasdorp,1015776,-34.5322,20.0403,57.2,48,77,2.3
55,Tuktoyaktuk,6170031,69.4541,-133.0374,10.4,75,79,8.05
56,Butaritari,2110227,3.0707,172.7902,81.37,97,77,8.66
57,Beloha,1067565,-25.1667,45.05,74.62,49,70,14.81
58,Lompoc,5367788,34.6391,-120.4579,50.79,58,76,6.2
59,Iquique,3887127,-20.2208,-70.1431,69.8,20,60,14.97
60,Bluff,2206939,-46.6,168.3333,44.01,28,95,1.99
61,Vaini,4032243,-21.2,-175.2,73.4,20,25,3.44
62,Narsaq,3421719,60.9167,-46.05,48.2,40,43,9.22
63,Grindavik,3416888,63.8424,-22.4338,44.6,90,100,20.71
64,Kabinda,215527,-6.1333,24.4833,74.21,100,78,4.38
65,Hilo,5855927,19.7297,-155.09,67.73,90,73,6.91
66,Antalaha,1071296,-14.9003,50.2788,73.35,98,92,5.57
67,Kahului,5847411,20.8947,-156.47,69.62,20,78,9.22
68,Port Alfred,964432,-33.5906,26.891,68.94,2,73,25.14
69,Kokkola,651943,63.8385,23.1307,33.24,90,93,10.36
70,Deputatsky,2028164,69.3,139.9,-6.41,97,99,3.65
71,Karratha,6620339,-20.7377,116.8463,77.79,1,37,6.6
72,Mercedes,3430708,-34.6515,-59.4307,80.33,74,60,3.0
73,Katherine,2068655,-14.4667,132.2667,66.2,14,63,6.91
74,Bowen,2174444,-20.0167,148.2333,66.2,90,94,11.5
75,Belle Fourche,5762718,44.6714,-103.8522,30.65,100,78,3.0
76,Torbay,6167817,47.6666,-52.7314,46.6,75,53,25.32
77,San Cristobal,3628473,7.7669,-72.225,89.6,20,55,14.97
78,Airai,1651810,-8.9266,125.4092,57.38,43,91,2.51
79,Donskoye,565289,45.4552,41.9741,52.39,0,62,8.95
80,Mataura,6201424,-46.1927,168.8643,44.01,30,95,1.99
81,Ponta do Sol,2264557,32.6667,-17.1,62.15,38,75,11.01
82,El Rodeo,3596249,14.9167,-91.9667,78.51,75,62,4.61
83,Laiyang,1804586,36.9758,120.7136,55.99,100,92,10.07
84,Santa Engracia,3108269,41.9406,-1.3245,69.98,76,30,17.27
85,Cluses,3024532,46.0625,6.575,62.73,20,19,5.75
86,San Julián,3985797,21.0167,-102.1667,83.01,30,50,13.02
87,Fort Nelson,5955902,58.8053,-122.7002,30.2,75,47,10.36
88,Jurm,1139085,36.8648,70.8342,46.04,1,50,5.1
89,Necochea,3430443,-38.5473,-58.7368,66.99,100,86,8.99
90,Saint Anthony,5044290,45.0205,-93.218,49.01,90,57,11.5
91,Aden,415189,12.7794,45.0367,82.24,0,79,15.46
92,Uinskoye,479442,56.8817,56.5813,40.24,100,89,5.57
93,Terrace,6162949,54.5163,-128.6035,46.4,75,42,16.11
94,Kimbe,2093967,-5.5502,150.1429,75.09,100,96,2.06
95,Qaanaaq,3831208,77.484,-69.3632,23.23,100,82,8.28
96,Hagi,1863418,34.4,131.4167,55.99,77,64,1.99
97,Hithadhoo,1282256,-0.6,73.0833,82.35,22,74,6.8
98,Onega,515246,63.9061,38.1404,48.79,100,79,8.79
99,Leavenworth,4274307,39.2333,-95.0336,53.04,100,76,3.0
100,Corcoran,5339539,36.098,-119.5604,63.01,1,59,5.75
101,Valparaíso,3868626,-33.0393,-71.6273,59.34,90,72,3.44
102,Ankang,1789065,32.68,109.0172,55.0,100,33,14.0
103,Akhtubinsk,583798,48.2795,46.1722,52.11,51,81,3.36
104,Sumaré,6322600,-22.8374,-47.252,77.0,20,41,4.88
105,Maniago,3174084,46.1706,12.7078,64.81,20,52,9.22
106,Avarua,4035715,-21.2078,-159.775,78.8,98,83,10.36
107,Zhangzhou,1785018,24.5133,117.6556,75.2,20,64,11.18
108,East London,1006984,-33.0153,27.9116,66.2,0,82,10.36
109,Cherskiy,2126199,68.75,161.3,16.2,100,92,9.19
110,Yermekeyevo,467260,54.0761,53.6712,45.54,100,86,12.37
111,Pimentel,3693584,-6.8367,-79.9342,73.98,0,61,17.27
112,Tasiilaq,3424607,65.6145,-37.6368,35.6,90,60,3.44
113,Saint Paul Harbor,5866583,57.79,-152.4072,41.0,90,87,6.91
114,George Town,1735106,5.4112,100.3354,78.33,40,94,3.44
115,Oranjemund,3354071,-28.55,16.4333,61.14,2,89,8.08
116,Kyra,2021041,49.5776,111.9753,35.8,91,75,1.16
117,Sinnamary,3380290,5.3833,-52.95,80.47,72,84,13.47
118,Honiara,2108502,-9.4333,159.95,76.84,96,89,1.57
119,Olafsvik,3414079,64.8945,-23.7142,43.74,100,91,13.35
120,George Town,1735106,5.4112,100.3354,78.33,40,94,3.44
121,Corner Brook,5927969,48.9667,-57.9484,39.13,90,65,12.66
122,Killam,5991888,52.7834,-111.8518,35.6,0,30,4.61
123,Taoudenni,2450173,22.6783,-3.9836,104.0,0,5,15.73
124,Pevek,2122090,69.7008,170.3133,4.46,82,98,3.6
125,Igrim,1505965,63.1906,64.4162,41.76,92,90,7.61
126,Humaitá,3664078,-7.5061,-63.0208,93.97,90,47,1.01
127,Nome,5870133,64.5011,-165.4064,32.67,1,64,9.22
128,Ambilobe,1082243,-13.2,49.05,75.79,85,77,6.53
129,Kirundo Province,432455,-2.5833,30.1667,71.6,40,73,5.75
130,Adrar,2381972,20.5022,-10.0711,97.23,0,5,10.56
131,Los Llanos de Aridane,2514651,28.6585,-17.9182,70.2,40,57,8.05
132,Korla,1529376,41.7597,86.1469,45.3,3,69,12.3
133,Nosy Varika,1058080,-20.5833,48.5333,71.42,24,91,3.53
134,Roald,3141667,62.5833,6.1333,37.99,40,65,8.05
135,Ilulissat,3423146,69.2167,-51.1,41.0,20,48,16.11
136,Klaksvík,2618795,62.2266,-6.589,44.6,75,93,4.61
137,Cayenne,3382160,4.9333,-52.3333,80.26,75,83,13.8
138,Saint-Philippe,935215,-21.3585,55.7679,71.87,90,78,18.41
139,Mezen',527321,65.8522,44.24,41.92,56,73,7.09
140,Qaqortoq,3420846,60.7167,-46.0333,48.2,40,43,9.22
141,Nikolskoye,546105,59.7035,30.7861,43.21,75,65,4.47
142,Severo-Kuril'sk,2121385,50.6789,156.125,34.68,100,93,6.17
143,Port Lincoln,2063036,-34.7333,135.8667,57.61,99,72,5.12
144,Beian,3160100,63.6559,9.5683,36.43,40,75,21.85
145,Ust-Tsilma,477940,65.441,52.1498,35.13,61,93,2.68
146,Hobart,2163355,-42.8794,147.3294,51.26,88,66,17.27
147,Correntina,3465373,-13.3433,-44.6367,87.62,48,43,2.44
148,San Ignacio Río Muerto,3970558,27.4167,-110.2333,71.6,1,40,5.75
149,Vestmanna,2610343,62.1564,-7.1664,44.6,75,93,4.61
150,Tocopilla,3869716,-22.092,-70.1979,69.31,13,64,8.12
151,Norman Wells,6089245,65.282,-126.8329,23.0,20,63,4.61
152,Killybegs,2963295,54.6333,-8.45,59.92,0,38,6.91
153,Jamestown,5122534,42.097,-79.2353,54.0,1,37,9.22
154,Benghazi,88319,32.1167,20.0667,80.24,36,32,10.58
155,Bethel,5282297,41.3712,-73.414,54.75,1,26,17.27
156,Tuy Hoa,1563281,13.0833,109.3,76.95,33,91,3.49
157,Mareeba,2158767,-17.0,145.4333,71.2,75,83,12.66
158,Hariāna,1270357,31.6378,75.8408,66.79,8,60,5.14
159,Tamiahua,3516376,21.2667,-97.45,83.08,100,69,2.01
160,Serowe,933088,-22.3833,26.7167,66.09,0,29,2.1
161,Samarai,2132606,-10.6167,150.6667,81.91,99,79,7.72
162,Berlevåg,780687,70.8578,29.0864,36.12,20,60,3.44
163,Champerico,3598787,14.3,-91.9167,87.8,75,70,6.22
164,Kaitangata,2208248,-46.2817,169.8464,51.01,35,88,1.01
165,Manokwari,1636308,-0.8667,134.0833,78.82,95,80,3.78
166,Jutaí,3663693,-5.1833,-68.9,82.62,100,70,6.85
167,Rafaela,3839479,-31.2503,-61.4867,70.81,98,72,5.46
168,Nemuro,2128975,43.3236,145.575,36.39,47,89,9.17
169,Ximeicun,1789289,24.9639,118.3794,75.2,20,64,11.18
170,Annau,162199,37.8876,58.516,77.0,40,36,13.8
171,Hasaki,2112802,35.7333,140.8333,46.06,0,81,6.91
172,Haines Junction,5969025,60.7522,-137.5108,37.4,14,48,3.44
173,Mar del Plata,3430863,-38.0023,-57.5575,71.67,40,73,6.91
174,Karpathos,260895,35.507,27.2132,66.2,0,68,5.28
175,Dikson,1507390,73.5069,80.5464,32.36,100,97,20.85
176,Nanortalik,3421765,60.1432,-45.2371,37.98,31,80,6.73
177,Acheng,2038679,45.5454,126.977,50.0,40,81,8.95
178,Goba,336350,7.0167,39.9833,50.63,60,90,4.03
179,Bambous Virieux,1106677,-20.3428,57.7575,78.89,40,83,9.22
180,Lüderitz,3355672,-26.6481,15.1594,64.56,1,79,13.35
181,Boca do Acre,3664956,-8.7522,-67.3978,92.23,84,48,3.2
182,Westport,4845585,41.1415,-73.3579,55.69,1,28,14.97
183,Bobrovka,1509955,54.047,61.7455,50.02,100,66,7.7
184,Kavaratti,1267390,10.5669,72.642,84.13,1,70,8.16
185,Mount Gambier,2156643,-37.8333,140.7667,50.0,40,93,8.05
186,Laguna,5364271,38.421,-121.4238,59.32,20,67,3.44
187,Maxixe,1039536,-23.8597,35.3472,70.39,5,75,6.4
188,Carnarvon,2074865,-24.8667,113.6333,69.8,1,83,8.05
189,Mastic Beach,5126209,40.7668,-72.8521,53.11,1,28,16.11
190,Grand-Santi,3381538,4.25,-54.3833,80.53,79,89,4.16
191,Kupang,2057087,-10.1667,123.5833,76.64,11,84,6.73
192,Khani,610864,41.9563,42.9566,55.4,0,71,5.75
193,Ulundi,946257,-28.3352,31.4162,58.5,30,86,5.01
194,Río Gallegos,3838859,-51.6226,-69.2181,51.8,0,54,3.44
195,Puerto Ayacucho,3629710,5.6639,-67.6236,94.39,23,44,2.33
196,Cidreira,3466165,-30.1811,-50.2056,72.7,83,69,16.02
197,Havøysund,779622,70.9963,24.6622,35.64,75,70,5.75
198,Kruisfontein,986717,-34.0033,24.7314,71.01,1,69,3.0
199,Russell,4047434,32.3502,-85.1999,68.58,75,26,8.05
200,Port Elizabeth,964420,-33.918,25.5701,66.2,0,82,19.57
201,Esperance,2071860,-33.8667,121.9,55.4,100,94,8.05
202,Castro,3466704,-24.7911,-50.0119,70.92,3,44,0.81
203,Port Blair,1259385,11.6667,92.75,81.39,46,71,7.16
204,Hamilton,4513583,39.1834,-84.5333,55.15,90,35,13.8
205,Porto-Novo,2392087,6.4965,2.6036,87.8,20,74,14.97
206,Havre-St-Pierre,5972291,50.2334,-63.5986,35.6,90,87,17.27
207,Matola,1039854,-25.9622,32.4589,67.69,75,88,9.22
208,Mīrābād,1133310,30.4362,61.8383,81.48,0,5,8.7
209,Smithers,6149996,54.7804,-127.1743,44.6,20,39,5.75
210,Ahipara,2194098,-35.1667,173.1667,61.52,11,86,10.74
211,Castelo do Piauí,3402548,-5.3222,-41.5525,82.94,67,74,3.04
212,Faanui,4034551,-16.4833,-151.75,80.2,46,75,11.79
213,Quesnel,6115187,52.9999,-122.5029,41.0,1,38,3.44
214,Nouadhibou,2377457,20.931,-17.0347,71.6,0,68,19.57
215,Sangmélima,2222230,2.9333,11.9833,74.66,98,84,5.08
216,Gouré,2444219,13.9835,10.2704,100.99,13,7,9.6
217,Hibbing,5030005,47.4272,-92.9377,43.56,90,81,6.91
218,Bom Jesus,3405304,-9.0744,-44.3586,87.78,84,53,3.22
219,Clyde River,5924351,70.4692,-68.5914,19.4,40,93,10.36
220,Bartica,3379507,6.4,-58.6167,82.4,40,83,18.41
221,Pāveh,121240,35.0434,46.3565,61.7,86,30,3.24
222,Hofn,2630299,64.2539,-15.2082,46.4,90,76,2.51
223,Berdigestyakh,2026861,62.0989,126.6992,23.27,91,91,11.65
224,Nipawin,6088469,53.3668,-104.0009,33.8,75,44,10.36
225,Inuvik,5983607,68.3499,-133.7218,23.92,82,54,5.75
226,Mocajuba,3394745,-2.5842,-49.5072,84.78,70,72,1.59
227,Ribeira Grande,3372707,38.5167,-28.7,60.8,40,67,33.38
228,Veseloyarsk,1487164,51.2836,81.1056,33.87,74,65,6.4
229,Gravelbourg,5965462,49.8834,-106.5512,30.2,88,34,8.05
230,Shihezi,1529195,44.3,86.0333,39.61,100,60,6.53
231,Conde,3385077,-7.2597,-34.9075,86.0,75,70,12.66
232,Sitka,5557293,57.0531,-135.33,46.4,1,57,5.75
233,Yar-Sale,1486321,66.8333,70.8333,34.72,100,99,11.63
234,Salto,3440714,-31.3833,-57.9667,83.53,20,45,8.05
235,Akdağmadeni,324768,39.6603,35.8836,53.92,81,35,4.23
236,Kavieng,2094342,-2.5744,150.7967,76.33,100,86,10.58
237,Iqaluit,5983720,63.7506,-68.5145,28.2,90,80,5.75
238,Flinders,6255012,-34.5833,150.8552,50.86,15,76,1.01
239,Gushikawa,1863495,26.3544,127.8686,69.51,90,78,18.41
240,Sørland,3137469,67.667,12.6934,37.4,40,75,19.57
241,Maricá,3457708,-22.9194,-42.8186,80.37,20,61,16.11
242,Broome,5110365,42.2506,-75.833,51.51,1,37,19.57
243,Gladstone,2165478,-23.85,151.25,68.0,40,56,1.14
244,Tharād,1254638,24.3961,71.6267,86.41,0,49,12.08
245,Pizarro,3672086,4.9533,-77.366,84.49,61,69,9.35
246,Arraial do Cabo,3471451,-22.9661,-42.0278,77.0,0,73,21.85
247,Margate,2643044,51.3813,1.3862,49.28,1,60,1.99
248,Shankargarh,1256650,25.1833,81.6167,90.27,33,10,5.97
249,Pisco,3932145,-13.7,-76.2167,70.32,0,73,11.5
250,Galle,1246294,6.0367,80.217,81.61,9,79,8.03
251,Mbaïki,2384770,3.8678,17.9892,75.15,70,85,3.74
252,Angoche,1052944,-16.2325,39.9086,76.91,37,76,8.79
253,Namatanai,2090021,-3.6667,152.4333,76.68,100,88,3.6
254,Kenai,5866063,60.5544,-151.2583,42.06,1,56,5.75
255,Provideniya,4031574,64.3833,-173.3,33.06,99,69,2.06
256,Buraidah,107304,26.326,43.975,89.6,20,14,12.66
257,Kiama,2161515,-34.6833,150.8667,51.06,10,73,1.01
258,Euclides da Cunha,3463698,-10.5075,-39.0158,83.53,63,58,7.94
259,Salalah,286621,17.0151,54.0924,84.2,20,74,4.61
260,Coruripe,3465329,-10.1256,-36.1756,85.01,9,63,11.72
261,La Rioja,3336897,42.25,-2.5,66.96,20,34,14.97
262,Tessalit,2449893,20.1986,1.0114,100.44,0,5,13.69
263,Harper,2276492,4.375,-7.7169,84.56,94,73,10.49
264,Guilin,1809498,25.2819,110.2864,75.2,40,83,2.24
265,Wasilla,5877641,61.5814,-149.4394,42.71,1,46,2.55
266,Bousso,2434584,10.4795,16.7117,97.66,97,24,13.27
267,Alizai,1184626,33.5383,70.3462,65.39,58,43,1.83
268,Taltal,3870243,-25.4,-70.4833,65.64,1,67,7.07
269,Mount Isa,2065594,-20.7333,139.5,68.0,1,26,12.66
270,Yerbogachën,2012956,61.2767,108.0108,30.97,100,84,7.11
271,São Filipe,3374210,14.8961,-24.4956,73.26,9,72,13.51
272,Alexandria,361058,31.2156,29.9553,68.0,0,68,6.91
273,Tuatapere,2180815,-46.1333,167.6833,44.01,48,95,1.99
274,Pulaski,4127619,34.7668,-92.3001,60.33,90,55,13.8
275,Bengkulu,1649150,-3.8004,102.2655,74.91,80,90,4.0
276,Marana,5303705,32.4367,-111.2254,69.8,1,21,5.75
277,Kundiawa,2093059,-6.0167,144.9667,62.37,100,96,2.13
278,Labuhan,8079926,-6.8844,112.2051,77.14,82,79,5.12
279,Coquimbo,3893629,-29.9533,-71.3436,62.6,90,67,4.61
280,Launceston,2160517,-41.45,147.1667,44.28,77,93,12.66
281,Saint George,5546220,37.1041,-113.5841,68.29,1,20,9.46
282,Cockburn Town,3576994,21.4612,-71.1419,82.4,40,65,9.22
283,Inhambane,1045114,-23.865,35.3833,71.56,4,73,7.34
284,Leningradskiy,2123814,69.3833,178.4167,24.49,100,94,4.97
285,Nahavand,122915,34.1885,48.377,63.9,95,45,3.24
286,Kidal,2455290,18.4411,1.4078,102.11,0,4,12.48
287,Tari,2322495,12.4086,4.4914,102.54,31,19,7.7
288,Bulgan,2032201,48.8125,103.5347,27.21,100,88,4.09
289,Kumul,1529484,42.8,93.45,50.29,99,28,9.75
290,Ponta Delgada,3372783,37.7333,-25.6667,60.8,40,67,28.77
291,Poum,2138555,-20.2333,164.0167,78.01,38,81,6.44
292,Nantucket,4944903,41.2835,-70.0995,48.6,1,46,26.46
293,Ojinaga,3994469,29.5667,-104.4167,76.12,1,12,9.22
294,Westerland,2810284,54.9079,8.3033,46.18,40,76,17.27
295,Fortuna,5563839,40.5982,-124.1573,54.5,20,87,3.44
296,Lebu,3883457,-37.6167,-73.65,58.35,60,71,4.68
297,Ḩasanābād,7052836,36.5465,61.0543,75.2,0,11,5.01
298,Verkhnyaya Inta,1487332,65.9811,60.3094,37.67,97,94,12.8
299,Tegul'det,1489822,57.3064,88.1667,29.07,32,92,4.41
300,Rimouski,6354895,48.4488,-68.524,38.3,100,65,26.46
301,General Pico,3855075,-35.6566,-63.7568,65.89,100,85,2.95
302,Praia da Vitória,3372760,38.7333,-27.0667,61.92,40,67,34.45
303,Hobyo,57000,5.3505,48.5268,84.13,49,67,14.25
304,Omsukchan,2122493,62.5333,155.8,19.94,100,96,1.19
305,Batatais,3470324,-20.8911,-47.585,82.4,0,34,5.75
306,Sibolga,1213855,1.7427,98.7792,76.57,100,87,2.86
307,Verkh-Usugli,2013459,52.7,115.1667,25.84,86,30,4.09
308,Lethem,3379316,3.3803,-59.7968,91.13,81,47,10.85
309,Sakakah,102527,29.9697,40.2064,84.2,20,11,17.27
310,Zhezkazgan,1516589,47.8043,67.7144,44.67,71,29,17.54
311,Manavgat,304854,36.7867,31.4431,64.4,0,59,2.3
312,Avera,4231997,33.194,-82.5271,68.34,1,23,10.36
313,Guerrero Negro,4021858,27.9769,-114.0611,63.28,90,62,16.42
314,Puerto Carreño,3671519,6.189,-67.4859,98.4,21,32,4.41
315,Thinadhoo,1337610,0.5333,72.9333,83.19,52,67,8.21
316,Bandar,1215498,2.05,99.75,74.75,100,94,2.33
317,Bentiu,377472,9.2333,29.8333,89.49,63,39,10.63
318,Padang,1633419,-0.9492,100.3543,75.2,20,94,2.3
319,Kopāganj,1266164,26.0233,83.5658,87.44,18,17,4.09
320,Vikhorevka,2013399,56.1201,101.1636,30.2,84,24,2.24
321,Ellensburg,5793639,46.9965,-120.5479,53.89,1,47,3.44
322,Bilma,2446796,18.6853,12.9164,101.17,80,6,7.85
323,Vila Velha,3445026,-20.3297,-40.2925,81.19,20,65,12.66
324,Seminole,4172445,28.7086,-81.2081,77.13,20,50,8.05
325,Pangnirtung,6096551,66.1451,-65.7125,26.6,75,80,2.3
326,Mzimba,925498,-11.9,33.6,59.81,27,94,5.41
327,Coahuayana Viejo,4013679,18.7333,-103.6833,84.2,40,23,7.18
328,Hannibal,4389418,39.7084,-91.3585,50.31,90,62,9.22
329,Lyuban',625721,52.7985,28.0048,41.0,100,70,8.77
330,Dudinka,1507116,69.4058,86.1778,31.86,90,96,19.91
331,Fiumicino,3176923,41.7675,12.2291,62.35,40,63,5.75
332,Port Augusta,2063056,-32.5,137.7667,51.8,40,87,5.75
333,Nabire,1634614,-3.3667,135.4833,76.37,100,92,3.78
334,Synya,485215,65.3718,58.0387,39.63,94,90,6.6
335,Biak,1637001,-0.9131,122.8766,77.32,95,81,6.15
336,San Patricio,4726521,28.017,-97.5169,78.21,90,78,20.71
337,Poyarkovo,2017705,49.6,128.6833,36.18,62,39,8.05
338,Raudeberg,3146487,61.9875,5.1352,43.0,68,73,15.19
339,Tevriz,1489661,57.509,72.4042,38.61,83,60,6.46
340,Arman',2127060,59.7,150.1667,26.49,98,97,2.98
341,Bonavista,5905393,48.6499,-53.1147,46.4,46,46,17.27
342,San Policarpo,1688696,12.1791,125.5072,76.89,100,86,5.55
343,Port Hardy,6111862,50.6996,-127.4199,49.3,75,71,5.75
344,Srednekolymsk,2121025,67.45,153.6833,8.55,100,94,16.26
345,Dandong,2037886,40.1292,124.3947,54.14,100,77,2.77
346,Lafiagi,2332504,8.8667,5.4167,98.08,42,31,3.98
347,Curup,1645875,-3.4667,102.5333,66.52,91,98,1.03
348,Luena,3347719,-11.7833,19.9167,67.8,74,70,2.3
349,Hella,3230781,67.2,14.4333,37.44,20,60,12.66
350,Waingapu,1622318,-9.6567,120.2641,75.47,5,82,5.3
351,Faya,110690,18.3851,42.4509,65.3,40,55,4.61
352,Aquiraz,3407407,-3.9014,-38.3911,86.59,20,74,12.66
353,Semey,1519422,50.4111,80.2275,36.19,51,52,7.18
354,Hong Kong,1819729,22.2855,114.1577,76.08,6,83,1.01
355,Seoul,1835848,37.5683,126.9778,60.8,0,55,10.36
356,Verkhnyaya Balkariya,474743,43.1279,43.4573,58.55,75,54,4.47
357,Lakota,2285449,5.8528,-5.6883,87.98,100,55,5.01
358,Erenhot,2037485,43.6475,111.9767,55.24,18,41,23.67
359,Vasterhaninge,2664339,59.1167,18.1,45.39,0,27,17.27
360,Udachny,2014624,66.4167,112.4,28.69,100,88,12.84
361,Codrington,2171099,-38.2667,141.9667,53.82,100,83,8.61
362,Piteå,603570,65.3172,21.4794,33.8,90,93,14.97
363,Khorostkiv,706271,49.2111,25.9217,48.0,89,53,9.55
364,Paignton,2640681,50.4357,-3.5679,56.62,0,23,17.27
365,Boende,218680,-0.2167,20.8667,74.5,100,89,1.59
366,Dunedin,2191562,-45.8742,170.5036,52.0,51,88,3.0
367,Ossora,2122389,59.2353,163.0719,29.35,96,93,4.0
368,Bata,2310046,1.8639,9.7658,80.11,99,78,8.86
369,Saint-Augustin,6137462,51.226,-58.6502,37.15,100,64,17.09
370,Baruun-Urt,2032614,46.6806,113.2792,38.53,53,32,16.87
371,Nālūt,2214432,30.3333,10.85,77.85,23,30,26.75
372,Ust'-Karsk,2013942,52.7011,118.8077,29.97,42,34,2.84
373,Ushtobe,1517637,45.2514,77.9838,35.42,0,37,8.75
374,Bathsheba,3374083,13.2167,-59.5167,86.0,20,54,20.71
375,Vryburg,942511,-26.9566,24.7284,64.08,5,28,1.16
376,Severo-Yeniseyskiy,1492566,60.3725,93.0408,18.97,17,96,2.21
377,La Asuncion,3480908,11.0333,-63.8628,86.0,6,62,24.16
378,Rio Grande,3451138,-32.035,-52.0986,77.86,40,61,21.85
379,Ulladulla,2145554,-35.35,150.4667,51.8,16,66,11.5
380,San-Pédro,2282006,4.7485,-6.6363,85.75,80,71,12.66
381,Clocolan,1013266,-28.9137,27.5656,57.83,70,31,5.93
382,Arcos de la Frontera,2521665,36.7508,-5.8106,68.95,0,53,13.8
383,Marrakesh,2542997,31.6315,-8.0083,82.4,20,34,9.22
384,Tiksi,2015306,71.6872,128.8694,-0.63,62,100,5.99
385,Luan,2659977,46.3592,6.9759,58.87,20,34,17.27
386,Meulaboh,1214488,4.1363,96.1285,77.74,100,85,2.66
387,Ous,1495812,60.9058,61.5186,41.63,84,92,5.03
388,Calvinia,3369174,-31.4707,19.776,71.2,0,28,6.4
389,Souris,6151456,49.6172,-100.2612,32.5,75,34,13.8
390,Egvekinot,4031742,66.3167,-179.1667,18.57,100,63,5.7
391,Saint-Leu,6690297,-21.15,55.2833,71.94,90,78,18.41
392,Gondanglegi,1640660,-7.7479,112.0132,73.51,48,84,5.82
393,Motygino,1498314,58.1831,94.7592,27.95,70,93,3.49
394,Asău,686090,46.4333,26.4,42.01,83,65,1.79
395,Aklavik,5882953,68.2191,-135.0107,26.6,20,63,4.61
396,Hermosillo,4004898,29.0667,-110.9667,75.06,1,33,4.61
397,Kisangani,212730,0.5167,25.2,70.81,100,95,2.08
398,Quatre Cocos,1106643,-20.2078,57.7625,78.91,40,83,9.22
399,Gornopravdinsk,1506268,60.05,69.9,44.69,100,79,7.92
400,Mergen,2035601,49.1833,125.2167,36.57,48,35,6.4
401,Terre Haute,4265737,39.4667,-87.4139,56.48,90,47,9.22
402,Khatanga,2022572,71.9667,102.5,34.03,100,92,21.03
403,Brenham,4676206,30.1669,-96.3977,73.2,90,88,11.5
404,Mayumba,2399001,-3.432,10.6554,80.02,77,79,6.22
405,Rincon,4218882,32.296,-81.2354,69.89,40,26,13.8
406,Sabaudia,3168764,41.3003,13.0282,60.96,47,66,10.8
407,Sladkovo,1491719,55.5284,70.3385,40.98,99,47,10.51
408,Kiryat Gat,293842,31.61,34.7642,66.85,7,100,10.65
409,Massakory,2428228,12.996,15.7293,101.79,99,9,5.84
410,Nuevitas,3545841,21.5453,-77.2644,91.4,40,40,14.97
411,San Quintín,3984997,30.4833,-115.95,61.14,48,70,15.46
412,La Primavera,3678000,5.4906,-70.4092,96.12,36,36,9.08
413,Santiago,3871336,-33.4569,-70.6483,59.23,90,87,4.76
414,Marsh Harbour,3571913,26.5412,-77.0636,72.86,98,70,17.65
415,Marzuq,72181,14.4,46.4667,73.99,0,54,8.25
416,Forsytheganj,10722858,52.6333,29.7333,41.32,97,71,6.2
417,Casas Grandes,4015076,30.3667,-107.95,64.0,0,13,8.01
418,Kualakapuas,1639304,-3.0091,114.3876,75.2,91,94,1.14
419,Mocuba,1024312,-16.8392,36.9856,69.12,21,91,4.36
420,Maun,933366,-19.9833,23.4167,73.4,0,46,4.61
421,São Borja,3449340,-28.6606,-56.0044,85.23,2,35,10.25
422,Presidencia Roque Sáenz Peña,3840300,-26.7852,-60.4388,73.9,78,77,8.48
423,Ouango,236844,4.3133,22.5552,71.91,99,94,2.8
424,Treinta y Tres,3439781,-33.2333,-54.3833,75.72,8,53,10.56
425,Young,3439525,-32.6833,-57.6333,81.0,18,56,3.0
426,Whitehorse,6180550,60.7161,-135.0538,34.68,1,51,6.91
427,Alice Springs,2077895,-23.7,133.8833,48.2,0,66,5.75
428,São João da Barra,3448903,-21.6403,-41.0511,84.2,0,48,3.91
429,El Salvador,3585968,13.8333,-88.9167,85.53,20,52,4.61
430,Cervo,3125287,43.6702,-7.4101,62.01,100,80,5.77
431,Murgab,1218612,37.4966,61.9714,69.8,40,35,4.61
432,Nelson Bay,2155562,-32.7167,152.15,49.77,23,100,6.91
433,Fukuechō,1863997,32.6881,128.8419,64.83,24,77,11.83
434,Taboão da Serra,3447186,-23.6261,-46.7917,73.15,0,53,4.61
435,Rawson,3839307,-43.3002,-65.1023,63.79,10,54,20.27
436,Sobolevo,525426,54.4299,31.8996,40.55,88,68,5.77
437,Kailua,5847486,21.4022,-157.7394,73.76,40,69,12.66
438,Itoman,1861280,26.1247,127.6694,69.55,75,83,16.11
439,Belaya Gora,2126785,68.5333,146.4167,-8.41,73,100,2.75
440,Abéché,245785,13.8292,20.8324,96.24,48,10,9.84
441,Campbell River,5914132,50.0163,-125.2446,53.24,75,71,5.75
442,Tautira,4033557,-17.7333,-149.15,77.0,40,83,1.14
443,Hualmay,3939761,-11.0964,-77.6139,71.87,26,74,10.36
444,Walvis Bay,3359638,-22.9575,14.5053,72.88,32,29,18.41
445,Sungurlare,726629,42.7667,26.7833,60.8,75,67,4.61
446,Sandwick,2638534,60.0,-1.25,50.0,20,62,6.91
447,Sokyryany,693284,48.4475,27.4168,46.42,85,56,11.12
448,Kieta,2094027,-6.2167,155.6333,76.8,98,87,1.68
449,Florianópolis,6323121,-27.6146,-48.5012,75.11,75,69,8.05
450,Anadyr,2127202,64.75,177.4833,8.28,0,85,6.71
451,Arkhipo-Osipovka,580969,44.37,38.52,51.3,100,77,3.71
452,Paamiut,3421193,61.994,-49.6678,34.65,1,74,3.8
453,Coyhaique,3894426,-45.5752,-72.0662,51.8,75,58,5.75
454,Malakal,370737,9.5334,31.6605,94.59,87,33,8.93
455,Baykit,1510689,61.67,96.37,21.94,23,97,2.77
456,Kloulklubed,7671223,7.0419,134.2556,75.2,75,94,5.82
457,San Jose,5392171,37.3394,-121.895,59.27,20,58,9.22
458,Nyurba,2018735,63.2842,118.3319,25.86,100,95,5.17
459,Mikhaylovskoye,1498775,51.8239,79.7172,35.31,69,53,7.07
460,Vardø,777019,70.3705,31.1107,35.6,75,64,9.22
461,Moses Lake,5803990,47.1301,-119.2781,58.24,1,21,3.44
462,Corn Island,3620266,12.1694,-83.0418,80.91,12,73,13.27
463,Bedēsa,342559,8.9,40.7833,65.28,89,79,4.38
464,Guiyang,1809461,26.5833,106.7167,73.4,90,73,8.95
465,Arica,3899361,-18.475,-70.3042,73.4,0,53,11.5
466,Yatou,1786855,37.15,122.3833,51.58,100,87,14.16
467,Inta,1505579,66.0317,60.1659,37.54,97,94,12.88
468,Chālūs,139223,36.655,51.4204,60.8,90,82,4.61
469,Riverton,5780557,40.5219,-111.9391,57.04,75,41,16.11
470,Walla Walla,5814916,46.0646,-118.343,58.12,1,47,9.22
471,Nelspruit,971534,-25.4745,30.9703,57.2,40,94,1.14
472,Zyryanka,2119283,65.75,150.85,12.6,100,93,20.51
473,Sioux Lookout,6148373,50.1001,-91.917,33.8,90,69,9.22
474,Knysna,988698,-34.0363,23.0471,59.0,90,94,5.75
475,Kulhudhuffushi,1337613,6.6221,73.07,83.84,28,71,6.93
476,Atambua,1651103,-9.1061,124.8925,71.55,25,87,4.56
477,Souillac,933995,-20.5167,57.5167,78.8,40,83,9.22
478,Atar,2381334,20.5169,-13.0499,98.69,0,4,9.51
479,Moerai,4034188,-22.4333,-151.3333,77.07,55,67,14.94
480,Acarí,3948613,-15.4311,-74.6158,77.86,54,62,10.07
481,Chumikan,2025256,54.7183,135.315,23.54,7,77,7.49
482,Vallenar,3868633,-28.5708,-70.7581,68.2,7,49,5.01
483,Zhangjiakou,2033196,40.81,114.8794,54.75,87,70,4.61
484,Ban Tak,1154677,17.0432,99.0813,81.52,57,75,5.86
485,Natal,3394023,-5.795,-35.2094,87.8,20,62,12.66
486,Basco,1726449,20.4487,121.9702,76.46,4,83,11.74
487,Suntar,2015913,62.1444,117.6319,31.32,100,92,10.33
488,Te Anau,2181625,-45.4167,167.7167,44.1,27,93,2.17
489,Tual,1623197,-5.6667,132.75,84.61,84,72,13.22
490,Dabakala,2290609,8.3667,-4.4333,97.52,39,30,1.41
491,Mangan,1263776,27.5167,88.5333,67.1,60,53,6.06
492,Florø,3156980,61.5996,5.0328,41.0,40,65,13.8
493,Stubbekøbing,2612192,54.8887,12.041,51.08,13,48,8.99
494,Riyadh,108410,24.6877,46.7219,91.87,0,12,4.61
495,Xunchang,1787901,28.4543,104.715,68.79,100,91,1.16
496,Belmonte,3470137,-15.8631,-38.8828,82.4,20,69,10.36
497,Markala,2453662,13.7021,-6.0659,105.21,71,13,0.63
498,Tura,1254046,25.5198,90.2201,76.03,41,31,4.29
499,Port Macquarie,2152659,-31.4333,152.9167,48.54,2,87,1.99
500,Ondjiva,3346821,-17.0667,15.7333,78.66,34,26,3.76
501,Port Hedland,2063042,-20.3167,118.5667,68.0,0,60,8.05
502,North Bend,5742974,43.4065,-124.2243,51.57,75,71,1.23
503,Sabha,2212775,27.0377,14.4283,98.51,40,7,3.74
504,Todos Santos,3981432,23.45,-110.2167,80.29,45,22,1.99
505,Huallanca,3695465,-9.8993,-76.9417,55.42,79,59,0.74
506,Narasannapeta,1261853,18.4167,84.05,82.38,98,75,5.44
507,Tilichiki,2120591,60.4667,166.1,9.57,67,94,6.64
508,Leer,371466,8.3018,30.1418,80.82,100,55,3.36
509,Itarema,3393692,-2.9248,-39.9167,84.79,30,68,11.52
510,Ahome,4019098,25.9167,-109.1833,80.1,1,29,2.75
511,Plouzané,2986626,48.3833,-4.6167,70.43,0,33,12.66
512,Saldanha,3361934,-33.0117,17.9442,62.6,48,67,6.91
513,Mopti,2453347,14.6667,-4.0,106.11,49,12,3.02
514,Deniliquin,2169068,-35.5333,144.9667,52.0,60,77,3.78
515,Beāwar,1276634,26.1,74.3167,87.06,7,23,14.27
516,Rabaul,2087894,-4.1967,152.1721,77.49,100,86,6.13
517,Moose Factory,6078372,51.2585,-80.6094,51.8,1,40,2.3
518,Mmathubudukwane,933347,-24.6,26.4333,66.2,0,39,5.75
519,Saint-François,2980080,46.4154,3.9054,66.65,0,28,9.22
520,Odienné,2283016,9.51,-7.5692,95.92,80,28,3.47
521,Xishan,1803616,27.6667,113.5,69.8,6,94,8.95
522,Ugoofaaru,1337619,5.6667,73.0,84.04,28,71,7.94
523,Simpang,1627035,-1.2667,104.0833,74.41,55,95,1.99
524,Pavlivka,697841,49.4414,28.4596,46.2,84,49,11.18
525,La Ronge,6050066,55.1001,-105.2842,26.6,71,43,12.66
526,São Félix do Xingu,3388847,-6.6447,-51.995,82.69,73,79,1.81
527,Muscle Shoals,4078964,34.7448,-87.6675,65.26,75,34,11.5
528,Pangody,1495626,65.85,74.4859,34.5,100,99,14.43
529,Bose,6457397,45.4612,8.0137,66.63,0,34,4.61
530,Brae,2654970,60.3964,-1.353,50.0,20,62,6.91
531,Flin Flon,5954718,54.7682,-101.865,28.4,75,46,10.36
532,Usogorsk,478297,63.4106,48.6872,47.97,78,70,5.97
533,Ati,2436400,13.2154,18.3353,99.16,83,10,7.94
534,Bridgewater,5908723,44.3835,-64.5155,45.3,100,53,28.77
535,Norsup,2135517,-16.0667,167.3833,80.69,96,81,7.9
536,Alghero,3183284,40.5589,8.3181,63.23,0,48,17.27
537,Laurel,4360369,39.0993,-76.8483,59.49,1,31,10.36
538,Petropavlovsk-Kamchatskiy,2122104,53.0452,158.6483,33.8,20,100,2.24
539,Desaguadero,3941492,-16.5656,-69.0417,54.39,38,46,12.48
540,Kathu,1153035,7.9178,98.3332,83.66,20,100,12.75
541,Burnie,2173125,-41.0667,145.9167,46.99,66,92,1.01
542,Staraya Russa,489088,57.9944,31.3608,42.4,57,63,8.32
543,Montepuez,1037125,-13.1256,38.9997,71.78,73,79,5.84
544,Tazovsky,1489853,67.4667,78.7,33.24,100,98,16.82
545,Fatehpur,1271912,25.9333,80.8,90.95,76,14,4.25
546,Hambantota,1244926,6.1241,81.1185,80.67,48,80,10.94
547,Narganá,3703946,9.4428,-78.5906,82.49,87,76,11.83
548,Bongandanga,218229,1.5,21.05,71.83,100,94,5.3
549,Noumea,2139521,-22.2763,166.4572,74.3,75,100,4.61
550,Visnes,3131500,59.3556,5.2242,44.6,0,53,24.16
551,San Rafael,3836669,-34.6177,-68.3301,68.07,8,46,7.52
552,Sabinópolis,3450806,-18.6661,-43.0839,83.07,8,39,1.23
553,Granger,4920869,41.7481,-86.1257,58.24,1,33,11.5
554,Jieshi,1805857,22.8134,115.8257,72.61,27,87,11.14
555,Bonthe,2409914,7.5264,-12.505,82.74,100,74,5.12
556,Medina,109223,24.4686,39.6142,95.0,40,10,12.66
557,Naples,3172394,40.8333,14.25,61.38,20,55,11.5
558,Duvan,564022,55.695,57.9024,45.63,100,81,4.76
559,Murree,1169684,33.9073,73.393,68.0,1,60,1.99
560,Philadelphia,4560349,39.9523,-75.1638,58.06,20,28,19.57
561,Nara,1855612,34.6851,135.8049,56.89,100,62,3.44
562,Constitución,3893726,-35.3333,-72.4167,62.82,37,60,4.47
563,Saint-Joseph,6690296,-21.3667,55.6167,72.0,90,78,18.41
564,Naze,1855540,28.3667,129.4833,65.16,100,67,28.63
565,Tambacounda,2244991,13.7539,-13.7586,107.6,0,8,4.61
566,La Cruz,4002745,23.9167,-106.9,84.0,32,43,5.01
567,Mossamedes,3347019,-15.1961,12.1522,80.98,2,73,10.42
568,Marystown,6067472,47.1666,-55.1483,41.41,70,61,22.03
569,Manzhouli,2035836,49.6,117.4333,37.71,93,21,6.55
570,Galveston,4692856,29.3669,-94.9669,74.97,90,83,16.11
571,Naantali,645211,60.4674,22.0243,34.52,90,86,13.8
572,Raja,368246,8.4596,25.678,92.05,76,21,3.22
